1697069270110,$GPGSA,A,3,16,04,27,09,48,26,31,08,46,07,,,1.72,0.91,1.46*05
1697069270120,$GPGSV,4,1,13,03,03,215,,04,68,234,37,07,16,298,27,08,34,183,38*7B
1697069270120,$GPGSV,4,2,13,09,50,294,32,16,60,039,29,18,05,059,09,26,33,056,32*70
1697069270120,$GPGSV,4,3,13,27,58,135,42,28,02,110,,31,24,101,29,46,21,244,42*77
1697069270120,$GPGSV,4,4,13,48,24,240,42*41
1697069270120,$GPGLL,3849.50175,N,07706.39707,W,000750.00,A,D*70
1697069271106,$GPRMC,000751.00,A,3849.50555,N,07706.40384,W,23.439,305.89,121023,,,D*4A
1697069271107,$GPVTG,305.89,T,,M,23.439,N,43.409,K,D*3A
1697069271117,$GPGGA,000751.00,3849.50555,N,07706.40384,W,2,10,0.91,81.7,M,-34.7,M,,0000*5F
1697069271117,$GPGSA,A,3,16,04,27,09,48,26,31,08,46,07,,,1.72,0.91,1.46*05
1697069271117,$GPGSV,4,1,13,03,03,215,,04,68,234,38,07,16,298,27,08,34,183,36*7A
1697069271117,$GPGSV,4,2,13,09,50,294,33,16,60,039,40,18,05,059,09,26,33,056,32*7E
1697069271117,$GPGSV,4,3,13,27,58,135,41,28,02,110,,31,24,101,21,46,21,244,41*7F
1697069271118,$GPGSV,4,4,13,48,24,240,42*41
1697069271118,$GPGLL,3849.50555,N,07706.40384,W,000751.00,A,D*76
1697069272107,$GPRMC,000752.00,A,3849.50931,N,07706.41091,W,23.530,305.65,121023,,,D*4B
1697069272107,$GPVTG,305.65,T,,M,23.530,N,43.578,K,D*37
1697069272107,$GPGGA,000752.00,3849.50931,N,07706.41091,W,2,10,0.91,81.8,M,-34.7,M,,0000*5B
1697069272108,$GPGSA,A,3,16,04,27,09,48,26,31,08,46,07,,,1.72,0.91,1.46*05
1697069272117,$GPGSV,4,1,13,03,03,215,,04,68,234,40,07,16,298,26,08,34,183,36*74
1697069272117,$GPGSV,4,2,13,09,50,294,34,16,60,039,40,18,05,059,10,26,33,056,32*71
1697069272117,$GPGSV,4,3,13,27,58,135,41,28,02,110,,31,24,101,27,46,21,244,41*79
1697069272118,$GPGSV,4,4,13,48,24,240,42*41
1697069272118,$GPGLL,3849.50931,N,07706.41091,W,000752.00,A,D*7D
1697069273107,$GPRMC,000753.00,A,3849.51308,N,07706.41772,W,23.364,305.70,121023,,,D*42
1697069273108,$GPVTG,305.70,T,,M,23.364,N,43.270,K,D*3B
1697069273108,$GPGGA,000753.00,3849.51308,N,07706.41772,W,2,10,0.91,81.2,M,-34.7,M,,0000*5B
1697069273108,$GPGSA,A,3,16,04,27,09,48,26,31,08,46,07,,,1.72,0.91,1.46*05
1697069273117,$GPGSV,4,1,13,03,03,215,,04,68,234,38,07,16,298,26,08,34,183,36*7B
1697069273117,$GPGSV,4,2,13,09,50,294,33,16,60,039,40,18,05,059,11,26,33,056,36*73
1697069273117,$GPGSV,4,3,13,27,58,135,42,28,02,110,,31,24,101,25,46,21,244,40*79
1697069273117,$GPGSV,4,4,13,48,24,240,40*43
1697069273117,$GPGLL,3849.51308,N,07706.41772,W,000753.00,A,D*77
1697069274109,$GPRMC,000754.00,A,3849.51694,N,07706.42440,W,23.040,305.94,121023,,,D*4B
1697069274110,$GPVTG,305.94,T,,M,23.040,N,42.670,K,D*31
1697069274110,$GPGGA,000754.00,3849.51694,N,07706.42440,W,2,10,0.91,80.8,M,-34.7,M,,0000*56
1697069274110,$GPGSA,A,3,16,04,27,09,48,26,31,08,46,07,,,1.72,0.91,1.46*05
1697069274117,$GPGSV,4,1,13,03,03,215,,04,68,234,38,07,16,298,28,08,34,183,34*77
1697069274117,$GPGSV,4,2,13,09,50,294,33,16,60,039,40,18,05,059,13,26,33,056,29*7F
1697069274117,$GPGSV,4,3,13,27,58,135,41,28,02,110,,31,24,101,31,46,21,244,41*7E
1697069274117,$GPGSV,4,4,13,48,24,240,42*41
1697069274118,$GPGLL,3849.51694,N,07706.42440,W,000754.00,A,D*71
1697069275107,$GPRMC,000755.00,A,3849.52072,N,07706.43112,W,22.929,306.24,121023,,,D*4B
1697069275108,$GPVTG,306.24,T,,M,22.929,N,42.464,K,D*39
1697069275108,$GPGGA,000755.00,3849.52072,N,07706.43112,W,2,10,0.91,80.5,M,-34.7,M,,0000*54
1697069275108,$GPGSA,A,3,16,04,27,09,48,26,31,08,46,07,,,1.72,0.91,1.46*05
1697069275112,$GPGSV,4,1,13,03,03,215,,04,68,234,39,07,16,298,32,08,34,183,35*7C
1697069275115,$GPGSV,4,2,13,09,50,294,34,16,60,039,40,18,05,059,15,26,33,056,33*75
1697069275115,$GPGSV,4,3,13,27,58,135,41,28,02,110,,31,24,101,28,46,21,244,42*75
1697069275116,$GPGSV,4,4,13,48,24,240,41*42
1697069275116,$GPGLL,3849.52072,N,07706.43112,W,000755.00,A,D*7E
1697069276106,$GPRMC,000756.00,A,3849.52444,N,07706.43785,W,22.956,305.75,121023,,,D*4E
1697069276106,$GPVTG,305.75,T,,M,22.956,N,42.514,K,D*30
1697069276109,$GPGGA,000756.00,3849.52444,N,07706.43785,W,2,10,0.91,80.3,M,-34.7,M,,0000*58
1697069276109,$GPGSA,A,3,16,04,27,09,48,26,31,08,46,07,,,1.72,0.91,1.46*05
1697069276109,$GPGSV,4,1,13,03,03,215,,04,68,234,39,07,16,298,30,08,34,183,35*7E
1697069276109,$GPGSV,4,2,13,09,50,294,33,16,60,039,33,18,05,059,16,26,33,056,28*7F
1697069276109,$GPGSV,4,3,13,27,58,135,41,28,02,110,,31,24,101,25,46,21,244,41*7B
1697069276109,$GPGSV,4,4,13,48,24,240,41*42
1697069276109,$GPGLL,3849.52444,N,07706.43785,W,000756.00,A,D*74
1697069277106,$GPRMC,000757.00,A,3849.52814,N,07706.44454,W,22.935,305.74,121023,,,D*4A
1697069277106,$GPVTG,305.74,T,,M,22.935,N,42.475,K,D*32
1697069277107,$GPGGA,000757.00,3849.52814,N,07706.44454,W,2,10,0.91,80.4,M,-34.7,M,,0000*5F
1697069277107,$GPGSA,A,3,16,04,27,09,48,26,31,08,46,07,,,1.72,0.91,1.46*05
1697069277117,$GPGSV,4,1,13,03,03,215,,04,68,234,40,07,16,298,30,08,34,183,33*76
1697069277117,$GPGSV,4,2,13,09,50,294,30,16,60,039,33,18,05,059,16,26,33,056,37*72
1697069277117,$GPGSV,4,3,13,27,58,135,41,28,02,110,,31,24,101,31,46,21,244,31*79
1697069277117,$GPGSV,4,4,13,48,24,240,35*41
1697069277117,$GPGLL,3849.52814,N,07706.44454,W,000757.00,A,D*74
1697069278108,$GPRMC,000758.00,A,3849.53186,N,07706.45117,W,22.792,306.01,121023,,,D*47
1697069278108,$GPVTG,306.01,T,,M,22.792,N,42.212,K,D*37
1697069278109,$GPGGA,000758.00,3849.53186,N,07706.45117,W,2,10,0.91,80.0,M,-34.7,M,,0000*54
1697069278109,$GPGSA,A,3,16,04,27,09,48,26,31,08,46,07,,,1.72,0.91,1.46*05
1697069278109,$GPGSV,4,1,13,03,03,215,,04,68,234,39,07,16,298,30,08,34,183,33*78
1697069278109,$GPGSV,4,2,13,09,50,294,32,16,60,039,36,18,05,059,16,26,33,056,34*76
1697069278117,$GPGSV,4,3,13,27,58,134,41,28,02,110,,31,24,101,29,46,21,244,36*76
1697069278117,$GPGSV,4,4,13,48,24,240,40*43
1697069278117,$GPGLL,3849.53186,N,07706.45117,W,000758.00,A,D*7B
1697069279106,$GPRMC,000759.00,A,3849.53561,N,07706.45773,W,22.716,305.71,121023,,,D*47
1697069279107,$GPVTG,305.71,T,,M,22.716,N,42.071,K,D*38
1697069279107,$GPGGA,000759.00,3849.53561,N,07706.45773,W,2,10,0.91,79.7,M,-34.7,M,,0000*5D
1697069279107,$GPGSA,A,3,16,04,27,09,48,26,31,08,46,07,,,1.72,0.91,1.46*05
1697069279117,$GPGSV,4,1,13,03,03,215,,04,68,234,39,07,16,298,30,08,34,183,28*72
1697069279117,$GPGSV,4,2,13,09,50,294,32,16,60,039,38,18,05,059,16,26,33,056,36*7A
1697069279117,$GPGSV,4,3,13,27,58,134,41,28,01,110,,31,24,101,30,46,21,244,29*73
1697069279117,$GPGSV,4,4,13,48,24,240,30*44
1697069279117,$GPGLL,3849.53561,N,07706.45773,W,000759.00,A,D*73
1697069280101,$GPRMC,000800.00,A,3849.53937,N,07706.46422,W,22.533,306.78,121023,,,D*40
1697069280102,$GPVTG,306.78,T,,M,22.533,N,41.731,K,D*37
1697069280103,$GPGGA,000800.00,3849.53937,N,07706.46422,W,2,10,0.91,79.3,M,-34.7,M,,0000*51
1697069280103,$GPGSA,A,3,16,04,27,09,48,26,31,08,46,07,,,1.72,0.91,1.46*05
1697069280107,$GPGSV,4,1,13,03,03,215,,04,68,234,39,07,16,298,29,08,34,183,36*75
1697069280108,$GPGSV,4,2,13,09,50,294,32,16,60,039,26,18,05,059,15,26,33,056,32*72
1697069280108,$GPGSV,4,3,13,27,58,134,40,28,01,110,,31,24,101,29,46,21,244,34*76
1697069280108,$GPGSV,4,4,13,48,24,240,39*4D
1697069280108,$GPGLL,3849.53937,N,07706.46422,W,000800.00,A,D*7B
1697069281105,$GPRMC,000801.00,A,3849.54301,N,07706.47067,W,22.333,306.35,121023,,,D*42
1697069281106,$GPVTG,306.35,T,,M,22.333,N,41.361,K,D*39
1697069281108,$GPGGA,000801.00,3849.54301,N,07706.47067,W,2,10,0.91,79.0,M,-34.7,M,,0000*5F
1697069281108,$GPGSA,A,3,16,04,27,09,48,26,31,08,46,07,,,1.72,0.91,1.46*05
1697069281109,$GPGSV,4,1,13,03,03,215,,04,68,234,38,07,16,298,29,08,34,183,32*70
1697069281109,$GPGSV,4,2,13,09,50,294,32,16,60,039,39,18,05,059,16,26,33,056,27*7B
1697069281109,$GPGSV,4,3,13,27,58,134,41,28,01,110,,31,24,101,24,46,21,244,34*7A
1697069281109,$GPGSV,4,4,13,48,24,240,29*4C
1697069281109,$GPGLL,3849.54301,N,07706.47067,W,000801.00,A,D*76
1697069282105,$GPRMC,000802.00,A,3849.54667,N,07706.47686,W,21.578,306.44,121023,,,D*41
1697069282106,$GPVTG,306.44,T,,M,21.578,N,39.963,K,D*32
1697069282106,$GPGGA,000802.00,3849.54667,N,07706.47686,W,2,10,1.08,78.3,M,-34.7,M,,0000*53
1697069282117,$GPGSA,A,3,16,04,27,09,48,26,31,08,46,07,,,1.99,1.08,1.67*02
1697069282117,$GPGSV,4,1,13,03,03,215,,04,68,234,39,07,16,298,30,08,34,183,36*7D
1697069282118,$GPGSV,4,2,13,09,50,294,33,16,60,039,39,18,05,059,15,26,33,056,35*7A
1697069282118,$GPGSV,4,3,13,27,58,134,41,28,01,110,,31,24,101,30,46,21,244,42*7E
1697069282118,$GPGSV,4,4,13,48,24,240,41*42
1697069282118,$GPGLL,3849.54667,N,07706.47686,W,000802.00,A,D*79
1697069283107,$GPRMC,000803.00,A,3849.55021,N,07706.48284,W,21.089,308.59,121023,,,D*45
1697069283108,$GPVTG,308.59,T,,M,21.089,N,39.057,K,D*35
1697069283108,$GPGGA,000803.00,3849.55021,N,07706.48284,W,2,10,0.91,77.7,M,-34.7,M,,0000*54
1697069283108,$GPGSA,A,3,16,04,27,09,48,26,31,08,46,07,,,1.72,0.91,1.46*05
1697069283117,$GPGSV,4,1,13,03,03,215,,04,68,234,40,07,16,298,34,08,34,183,33*72
1697069283117,$GPGSV,4,2,13,09,50,294,35,16,60,039,39,18,05,059,16,26,33,056,30*7A
1697069283117,$GPGSV,4,3,13,27,58,134,39,28,01,110,,31,24,101,30,46,21,244,40*73
1697069283117,$GPGSV,4,4,13,48,24,240,41*42
1697069283117,$GPGLL,3849.55021,N,07706.48284,W,000803.00,A,D*74
1697069284105,$GPRMC,000804.00,A,3849.55398,N,07706.48865,W,20.780,309.87,121023,,,D*4B
1697069284106,$GPVTG,309.87,T,,M,20.780,N,38.485,K,D*32
1697069284106,$GPGGA,000804.00,3849.55398,N,07706.48865,W,2,10,0.91,77.4,M,-34.7,M,,0000*54
1697069284106,$GPGSA,A,3,16,04,27,09,48,26,31,08,46,07,,,1.72,0.91,1.46*05
1697069284117,$GPGSV,4,1,13,03,03,215,,04,68,234,39,07,16,298,33,08,34,183,32*7A
1697069284117,$GPGSV,4,2,13,09,50,294,36,16,60,039,37,18,05,059,15,26,33,056,32*76
1697069284117,$GPGSV,4,3,13,27,58,134,41,28,01,110,,31,24,101,26,46,21,244,41*7A
1697069284117,$GPGSV,4,4,13,48,24,240,42*41
1697069284117,$GPGLL,3849.55398,N,07706.48865,W,000804.00,A,D*77
1697069285105,$GPRMC,000805.00,A,3849.55763,N,07706.49427,W,20.610,310.80,121023,,,D*46
1697069285106,$GPVTG,310.80,T,,M,20.610,N,38.169,K,D*32
1697069285111,$GPGGA,000805.00,3849.55763,N,07706.49427,W,2,10,0.92,77.2,M,-34.7,M,,0000*5B
1697069285112,$GPGSA,A,3,16,04,27,09,48,26,31,08,46,07,,,1.72,0.92,1.46*06
1697069285112,$GPGSV,4,1,13,03,03,215,,04,68,234,38,07,16,298,28,08,34,183,27*75
1697069285112,$GPGSV,4,2,13,09,50,294,36,16,60,039,39,18,05,059,15,26,33,056,32*78
1697069285112,$GPGSV,4,3,13,27,58,134,40,28,01,110,,31,24,101,26,46,21,244,36*7B
1697069285112,$GPGSV,4,4,13,48,24,240,38*4C
1697069285112,$GPGLL,3849.55763,N,07706.49427,W,000805.00,A,D*7D
1697069286107,$GPRMC,000806.00,A,3849.56140,N,07706.49978,W,20.398,311.69,121023,,,D*45
1697069286107,$GPVTG,311.69,T,,M,20.398,N,37.778,K,D*38
1697069286108,$GPGGA,000806.00,3849.56140,N,07706.49978,W,2,10,0.92,76.9,M,-34.7,M,,0000*51
1697069286108,$GPGSA,A,3,16,04,27,09,48,26,31,08,46,07,,,1.72,0.92,1.46*06
1697069286117,$GPGSV,4,1,13,03,03,215,,04,68,234,39,07,16,298,33,08,34,183,27*7E
1697069286117,$GPGSV,4,2,13,09,50,294,33,16,60,039,30,18,05,059,15,26,33,056,27*70
1697069286117,$GPGSV,4,3,13,27,58,134,40,28,01,110,,31,24,101,27,46,21,244,43*78
1697069286117,$GPGSV,4,4,13,48,24,240,41*42
1697069286117,$GPGLL,3849.56140,N,07706.49978,W,000806.00,A,D*7D
1697069287104,$GPRMC,000807.00,A,3849.56524,N,07706.50512,W,20.274,312.94,121023,,,D*48
1697069287105,$GPVTG,312.94,T,,M,20.274,N,37.548,K,D*3B
1697069287107,$GPGGA,000807.00,3849.56524,N,07706.50512,W,2,10,0.92,76.6,M,-34.7,M,,0000*51
1697069287108,$GPGSA,A,3,16,04,27,09,48,26,31,08,46,07,,,1.72,0.92,1.46*06
1697069287108,$GPGSV,4,1,13,03,03,215,,04,68,234,37,07,16,298,33,08,34,183,29*7E
1697069287108,$GPGSV,4,2,13,09,50,294,33,16,60,039,36,18,05,059,15,26,33,056,32*72
1697069287108,$GPGSV,4,3,13,27,58,134,39,28,01,110,,31,24,101,25,46,21,244,38*78
1697069287108,$GPGSV,4,4,13,48,24,240,37*43
1697069287108,$GPGLL,3849.56524,N,07706.50512,W,000807.00,A,D*72
1697069288107,$GPRMC,000808.00,A,3849.56913,N,07706.51034,W,20.116,313.93,121023,,,D*4E
1697069288108,$GPVTG,313.93,T,,M,20.116,N,37.255,K,D*31
1697069288108,$GPGGA,000808.00,3849.56913,N,07706.51034,W,2,10,0.92,76.3,M,-34.7,M,,0000*53
1697069288108,$GPGSA,A,3,16,04,27,09,48,26,31,08,46,07,,,1.72,0.92,1.46*06
1697069288117,$GPGSV,4,1,13,03,03,215,,04,68,234,39,07,16,298,35,08,34,183,29*76
1697069288117,$GPGSV,4,2,13,09,50,294,34,16,60,039,41,18,05,059,14,26,33,056,35*73
1697069288117,$GPGSV,4,3,13,27,58,134,40,28,01,110,,31,24,101,31,46,21,244,44*78
1697069288117,$GPGSV,4,4,13,48,24,240,40*43
1697069288118,$GPGLL,3849.56913,N,07706.51034,W,000808.00,A,D*75
1697069289105,$GPRMC,000809.00,A,3849.57296,N,07706.51543,W,19.799,314.49,121023,,,D*46
1697069289106,$GPVTG,314.49,T,,M,19.799,N,36.667,K,D*3E
1697069289117,$GPGGA,000809.00,3849.57296,N,07706.51543,W,2,10,0.92,76.3,M,-34.7,M,,0000*50
1697069289117,$GPGSA,A,3,16,04,27,09,48,26,31,08,46,07,,,1.72,0.92,1.46*06
1697069289117,$GPGSV,4,1,13,03,03,215,,04,68,234,38,07,16,298,36,08,34,183,29*74
1697069289117,$GPGSV,4,2,13,09,50,294,35,16,60,039,37,18,05,059,12,26,33,056,31*71
1697069289117,$GPGSV,4,3,13,27,58,134,39,28,01,110,,31,24,101,27,46,21,244,41*74
1697069289118,$GPGSV,4,4,13,48,24,240,38*4C
1697069289118,$GPGLL,3849.57296,N,07706.51543,W,000809.00,A,D*76
1697069290104,$GPRMC,000810.00,A,3849.57682,N,07706.52041,W,19.555,314.78,121023,,,D*4B
1697069290105,$GPVTG,314.78,T,,M,19.555,N,36.216,K,D*3C
1697069290110,$GPGGA,000810.00,3849.57682,N,07706.52041,W,2,10,0.92,76.2,M,-34.7,M,,0000*5C
1697069290111,$GPGSA,A,3,16,04,27,09,48,26,31,08,46,07,,,1.72,0.92,1.46*06
1697069290111,$GPGSV,4,1,13,03,03,215,,04,68,234,38,07,16,298,37,08,34,183,29*75
1697069290111,$GPGSV,4,2,13,09,50,294,33,16,60,039,39,18,05,059,11,26,33,056,31*7A
1697069290111,$GPGSV,4,3,13,27,58,134,37,28,01,110,,31,24,101,27,46,21,244,42*79
1697069290111,$GPGSV,4,4,13,48,24,240,39*4D
1697069290111,$GPGLL,3849.57682,N,07706.52041,W,000810.00,A,D*7B
1697069291101,$GPRMC,000811.00,A,3849.58072,N,07706.52522,W,19.180,315.71,121023,,,D*48
1697069291102,$GPVTG,315.71,T,,M,19.180,N,35.522,K,D*3B
1697069291102,$GPGGA,000811.00,3849.58072,N,07706.52522,W,2,10,0.92,76.2,M,-34.7,M,,0000*5B
1697069291102,$GPGSA,A,3,16,04,27,09,48,26,31,08,46,07,,,1.72,0.92,1.46*06
1697069291117,$GPGSV,4,1,13,03,03,215,,04,68,234,39,07,16,298,37,08,34,183,28*75
1697069291117,$GPGSV,4,2,13,09,50,294,33,16,60,039,39,18,05,059,09,26,33,056,34*76
1697069291117,$GPGSV,4,3,13,27,58,134,39,28,01,110,,31,24,101,27,46,21,244,41*74
1697069291117,$GPGSV,4,4,13,48,24,240,37*43
1697069291118,$GPGLL,3849.58072,N,07706.52522,W,000811.00,A,D*7C
1697069292108,$GPRMC,000812.00,A,3849.58457,N,07706.53006,W,19.439,315.88,121023,,,D*4B
1697069292108,$GPVTG,315.88,T,,M,19.439,N,36.001,K,D*3D
1697069292117,$GPGGA,000812.00,3849.58457,N,07706.53006,W,2,10,0.92,76.6,M,-34.7,M,,0000*5D
1697069292117,$GPGSA,A,3,16,04,27,09,48,26,31,08,46,07,,,1.72,0.92,1.46*06
1697069292117,$GPGSV,4,1,13,03,03,215,,04,68,234,39,07,16,298,39,08,34,183,28*7B
1697069292117,$GPGSV,4,2,13,09,50,294,33,16,60,039,38,18,05,059,12,26,33,056,36*7F
1697069292117,$GPGSV,4,3,13,27,58,134,39,28,01,110,,31,24,101,34,46,21,244,40*77
1697069292118,$GPGSV,4,4,13,48,24,240,39*4D
1697069292118,$GPGLL,3849.58457,N,07706.53006,W,000812.00,A,D*7E
1697069293106,$GPRMC,000813.00,A,3849.58858,N,07706.53492,W,19.967,316.83,121023,,,D*4E
1697069293107,$GPVTG,316.83,T,,M,19.967,N,36.979,K,D*35
1697069293107,$GPGGA,000813.00,3849.58858,N,07706.53492,W,2,10,0.92,76.9,M,-34.7,M,,0000*59
1697069293107,$GPGSA,A,3,16,04,27,09,48,26,31,08,46,07,,,1.72,0.92,1.46*06
1697069293117,$GPGSV,4,1,13,03,03,215,,04,68,234,39,07,16,298,40,08,34,183,28*75
1697069293117,$GPGSV,4,2,13,09,50,294,36,16,60,039,37,18,05,059,13,26,33,056,33*71
1697069293118,$GPGSV,4,3,13,27,58,134,39,28,01,110,,31,24,101,34,46,21,244,42*75
1697069293118,$GPGSV,4,4,13,48,24,240,42*41
1697069293118,$GPGLL,3849.58858,N,07706.53492,W,000813.00,A,D*75
1697069294109,$GPRMC,000814.00,A,3849.59274,N,07706.53982,W,20.500,317.32,121023,,,D*4C
1697069294110,$GPVTG,317.32,T,,M,20.500,N,37.967,K,D*37
1697069294110,$GPGGA,000814.00,3849.59274,N,07706.53982,W,2,10,0.92,77.1,M,-34.7,M,,0000*5E
1697069294110,$GPGSA,A,3,16,04,27,09,48,26,31,08,46,07,,,1.72,0.92,1.46*06
1697069294117,$GPGSV,4,1,13,03,03,215,21,04,68,234,39,07,16,298,38,08,34,183,29*78
1697069294117,$GPGSV,4,2,13,09,50,294,33,16,60,039,39,18,05,059,11,26,33,056,28*72
1697069294117,$GPGSV,4,3,13,27,58,134,38,28,01,110,,31,24,101,35,46,21,244,41*76
1697069294117,$GPGSV,4,4,13,48,24,240,40*43
1697069294118,$GPGLL,3849.59274,N,07706.53982,W,000814.00,A,D*7B
1697069295107,$GPRMC,000815.00,A,3849.59700,N,07706.54479,W,20.718,317.77,121023,,,D*4F
1697069295107,$GPVTG,317.77,T,,M,20.718,N,38.370,K,D*3E
1697069295108,$GPGGA,000815.00,3849.59700,N,07706.54479,W,2,10,0.92,77.1,M,-34.7,M,,0000*57
1697069295116,$GPGSA,A,3,16,04,27,09,48,26,31,08,46,07,,,1.72,0.92,1.46*06
1697069295121,$GPGSV,4,1,13,03,03,215,,04,68,234,39,07,16,298,40,08,34,183,30*7C
1697069295122,$GPGSV,4,2,13,09,50,294,33,16,60,039,34,18,05,059,09,26,33,056,20*7E
1697069295122,$GPGSV,4,3,13,27,58,134,38,28,01,110,,31,24,101,32,46,21,244,41*71
1697069295122,$GPGSV,4,4,13,48,24,240,40*43
1697069295123,$GPGLL,3849.59700,N,07706.54479,W,000815.00,A,D*72
1697069296106,$GPRMC,000816.00,A,3849.60115,N,07706.54977,W,20.494,316.62,121023,,,D*45
1697069296107,$GPVTG,316.62,T,,M,20.494,N,37.956,K,D*3D
1697069296107,$GPGGA,000816.00,3849.60115,N,07706.54977,W,2,10,0.92,77.2,M,-34.7,M,,0000*5C
1697069296107,$GPGSA,A,3,16,04,27,09,48,26,31,08,46,07,,,1.72,0.92,1.46*06
1697069296117,$GPGSV,4,1,13,03,03,215,19,04,68,234,39,07,16,298,36,08,34,183,31*74
1697069296117,$GPGSV,4,2,13,09,50,294,33,16,60,039,30,18,05,059,08,26,33,056,29*72
1697069296117,$GPGSV,4,3,13,27,58,134,39,28,01,110,,31,24,101,25,46,21,244,39*79
1697069296117,$GPGSV,4,4,13,48,24,240,39*4D
1697069296117,$GPGLL,3849.60115,N,07706.54977,W,000816.00,A,D*7A
1697069297108,$GPRMC,000817.00,A,3849.60521,N,07706.55485,W,20.502,315.36,121023,,,D*4A
1697069297108,$GPVTG,315.36,T,,M,20.502,N,37.969,K,D*3D
1697069297109,$GPGGA,000817.00,3849.60521,N,07706.55485,W,2,10,0.92,77.3,M,-34.7,M,,0000*5E
1697069297109,$GPGSA,A,3,16,04,27,09,48,26,31,08,46,07,,,1.72,0.92,1.46*06
1697069297117,$GPGSV,4,1,13,03,03,215,21,04,68,234,39,07,16,298,36,08,34,183,31*7F
1697069297117,$GPGSV,4,2,13,09,50,294,34,16,60,039,38,18,05,059,08,26,33,056,23*77
1697069297117,$GPGSV,4,3,13,27,58,134,38,28,01,110,,31,24,101,25,46,21,244,41*77
1697069297117,$GPGSV,4,4,13,48,24,240,37*43
1697069297117,$GPGLL,3849.60521,N,07706.55485,W,000817.00,A,D*79
1697069298104,$GPRMC,000818.00,A,3849.60924,N,07706.56005,W,20.562,314.80,121023,,,D*49
1697069298105,$GPVTG,314.80,T,,M,20.562,N,38.080,K,D*36
1697069298108,$GPGGA,000818.00,3849.60924,N,07706.56005,W,2,10,0.92,77.5,M,-34.7,M,,0000*51
1697069298108,$GPGSA,A,3,16,04,27,09,48,26,31,08,46,07,,,1.72,0.92,1.46*06
1697069298108,$GPGSV,4,1,13,03,03,215,21,04,68,234,38,07,16,298,35,08,34,183,29*74
1697069298108,$GPGSV,4,2,13,09,50,294,35,16,60,039,38,18,05,059,08,26,33,056,37*73
1697069298109,$GPGSV,4,3,13,27,58,134,36,28,01,110,,31,24,101,25,46,21,244,40*78
1697069298109,$GPGSV,4,4,13,48,24,240,37*43
1697069298109,$GPGLL,3849.60924,N,07706.56005,W,000818.00,A,D*70
1697069299107,$GPRMC,000819.00,A,3849.61340,N,07706.56526,W,21.045,315.68,121023,,,D*43
1697069299107,$GPVTG,315.68,T,,M,21.045,N,38.975,K,D*33
1697069299117,$GPGGA,000819.00,3849.61340,N,07706.56526,W,2,10,0.92,77.5,M,-34.7,M,,0000*5D
1697069299117,$GPGSA,A,3,16,04,27,09,48,26,31,08,46,07,,,1.72,0.92,1.46*06
1697069299117,$GPGSV,4,1,13,03,03,215,20,04,67,233,39,07,16,298,35,08,34,183,29*7C
1697069299117,$GPGSV,4,2,13,09,50,294,36,16,60,039,40,18,05,059,08,26,33,056,34*7C
1697069299117,$GPGSV,4,3,13,27,58,134,37,28,01,110,,31,24,101,27,46,21,244,40*7B
1697069299118,$GPGSV,4,4,13,48,24,240,37*43
1697069299118,$GPGLL,3849.61340,N,07706.56526,W,000819.00,A,D*7C
1697069300109,$GPRMC,000820.00,A,3849.61765,N,07706.57058,W,21.560,316.14,121023,,,D*4D
1697069300109,$GPVTG,316.14,T,,M,21.560,N,39.929,K,D*31
1697069300117,$GPGGA,000820.00,3849.61765,N,07706.57058,W,2,10,0.92,77.5,M,-34.7,M,,0000*59
1697069300117,$GPGSA,A,3,16,04,27,09,48,26,31,08,46,07,,,1.72,0.92,1.46*06
1697069300117,$GPGSV,4,1,13,03,03,215,18,04,67,233,38,07,16,298,37,08,34,183,30*7C
1697069300117,$GPGSV,4,2,13,09,50,294,33,16,60,039,39,18,05,059,09,26,33,056,36*74
1697069300118,$GPGSV,4,3,13,27,58,134,37,28,01,110,,31,24,101,33,46,21,244,39*70
1697069300118,$GPGSV,4,4,13,48,24,240,38*4C
1697069300118,$GPGLL,3849.61765,N,07706.57058,W,000820.00,A,D*78
1697069301110,$GPRMC,000821.00,A,3849.62206,N,07706.57583,W,21.737,317.05,121023,,,D*4D
1697069301111,$GPVTG,317.05,T,,M,21.737,N,40.257,K,D*3C
1697069301111,$GPGGA,000821.00,3849.62206,N,07706.57583,W,2,10,0.92,77.5,M,-34.7,M,,0000*58
1697069301111,$GPGSA,A,3,16,04,27,09,48,26,31,08,46,07,,,1.72,0.92,1.46*06
1697069301117,$GPGSV,4,1,13,03,03,215,16,04,67,233,38,07,16,298,37,08,34,183,31*73
1697069301117,$GPGSV,4,2,13,09,50,294,31,16,60,039,37,18,05,059,16,26,33,056,32*72
1697069301117,$GPGSV,4,3,13,27,58,134,36,28,01,110,,31,24,101,30,46,21,244,40*7C
1697069301117,$GPGSV,4,4,13,48,24,240,39*4D
1697069301117,$GPGLL,3849.62206,N,07706.57583,W,000821.00,A,D*79
1697069302107,$GPRMC,000822.00,A,3849.62657,N,07706.58109,W,21.847,317.71,121023,,,D*4C
1697069302108,$GPVTG,317.71,T,,M,21.847,N,40.460,K,D*35
1697069302108,$GPGGA,000822.00,3849.62657,N,07706.58109,W,2,10,0.92,77.5,M,-34.7,M,,0000*52
1697069302108,$GPGSA,A,3,16,04,27,09,48,26,31,08,46,07,,,1.72,0.92,1.46*06
1697069302108,$GPGSV,4,1,13,03,03,215,22,04,67,233,38,07,17,298,38,08,34,183,32*79
1697069302108,$GPGSV,4,2,13,09,50,294,29,16,60,039,37,18,05,059,18,26,33,056,27*71
1697069302109,$GPGSV,4,3,13,27,58,134,35,28,01,110,,31,24,101,34,46,21,244,38*74
1697069302109,$GPGSV,4,4,13,48,24,240,40*43
1697069302109,$GPGLL,3849.62657,N,07706.58109,W,000822.00,A,D*73
1697069303107,$GPRMC,000823.00,A,3849.63109,N,07706.58628,W,21.977,318.11,121023,,,D*4F
1697069303107,$GPVTG,318.11,T,,M,21.977,N,40.701,K,D*3A
1697069303109,$GPGGA,000823.00,3849.63109,N,07706.58628,W,2,10,0.92,77.4,M,-34.7,M,,0000*5B
1697069303110,$GPGSA,A,3,16,04,27,09,48,26,31,08,46,07,,,1.72,0.92,1.46*06
1697069303110,$GPGSV,4,1,13,03,03,215,18,04,67,233,38,07,17,298,38,08,34,183,33*71
1697069303110,$GPGSV,4,2,13,09,50,294,22,16,60,039,38,18,05,059,18,26,33,056,31*72
1697069303110,$GPGSV,4,3,13,27,58,134,35,28,01,110,,31,24,101,26,46,21,244,39*76
1697069303110,$GPGSV,4,4,13,48,24,240,40*43
1697069303110,$GPGLL,3849.63109,N,07706.58628,W,000823.00,A,D*7B
1697069304107,$GPRMC,000824.00,A,3849.63567,N,07706.59143,W,21.678,319.01,121023,,,D*4F
1697069304107,$GPVTG,319.01,T,,M,21.678,N,40.147,K,D*3E
1697069304107,$GPGGA,000824.00,3849.63567,N,07706.59143,W,2,10,0.92,77.4,M,-34.7,M,,0000*5B
1697069304107,$GPGSA,A,3,16,04,27,09,48,26,31,08,46,07,,,1.72,0.92,1.46*06
1697069304117,$GPGSV,4,1,13,03,03,215,,04,67,233,37,07,17,298,38,08,34,183,32*76
1697069304117,$GPGSV,4,2,13,09,50,294,29,16,60,039,39,18,05,059,17,26,33,056,30*76
1697069304117,$GPGSV,4,3,13,27,58,134,35,28,01,110,,31,24,101,26,46,21,244,41*79
1697069304118,$GPGSV,4,4,13,48,24,240,38*4C
1697069304118,$GPGLL,3849.63567,N,07706.59143,W,000824.00,A,D*7B
1697069305109,$GPRMC,000825.00,A,3849.64033,N,07706.59649,W,21.866,320.12,121023,,,D*49
1697069305109,$GPVTG,320.12,T,,M,21.866,N,40.495,K,D*3D
1697069305109,$GPGGA,000825.00,3849.64033,N,07706.59649,W,2,10,0.92,77.5,M,-34.7,M,,0000*55
1697069305109,$GPGSA,A,3,16,04,27,09,48,26,31,08,46,07,,,1.72,0.92,1.46*06
1697069305117,$GPGSV,4,1,13,03,03,215,,04,67,233,37,07,17,298,38,08,34,183,32*76
1697069305117,$GPGSV,4,2,13,09,50,294,34,16,60,039,38,18,05,059,17,26,33,056,33*78
1697069305117,$GPGSV,4,3,13,27,58,134,35,28,01,110,,31,24,101,37,46,21,244,40*78
1697069305117,$GPGSV,4,4,13,48,24,240,40*43
1697069305117,$GPGLL,3849.64033,N,07706.59649,W,000825.00,A,D*74
1697069306107,$GPRMC,000826.00,A,3849.64512,N,07706.60146,W,22.078,321.22,121023,,,D*48
1697069306108,$GPVTG,321.22,T,,M,22.078,N,40.889,K,D*3A
1697069306108,$GPGGA,000826.00,3849.64512,N,07706.60146,W,2,10,0.92,77.4,M,-34.7,M,,0000*53
1697069306108,$GPGSA,A,3,16,04,27,09,48,26,31,08,46,07,,,1.72,0.92,1.46*06
1697069306117,$GPGSV,4,1,13,03,03,215,,04,67,233,37,07,17,298,41,08,34,183,33*79
1697069306117,$GPGSV,4,2,13,09,50,294,37,16,60,039,35,18,05,059,18,26,33,056,27*7C
1697069306117,$GPGSV,4,3,13,27,58,134,34,28,01,110,,31,24,101,31,46,21,244,41*7E
1697069306117,$GPGSV,4,4,13,48,24,240,41*42
1697069306117,$GPGLL,3849.64512,N,07706.60146,W,000826.00,A,D*73
1697069307107,$GPRMC,000827.00,A,3849.64989,N,07706.60628,W,22.363,321.74,121023,,,D*42
1697069307120,$GPVTG,321.74,T,,M,22.363,N,41.416,K,D*3B
1697069307120,$GPGGA,000827.00,3849.64989,N,07706.60628,W,2,10,0.92,76.8,M,-34.7,M,,0000*5E
1697069307120,$GPGSA,A,3,16,04,27,09,48,26,31,08,46,07,,,1.72,0.92,1.46*06
1697069307120,$GPGSV,4,1,13,03,03,215,,04,67,233,37,07,17,298,41,08,34,183,34*7E
1697069307121,$GPGSV,4,2,13,09,50,294,39,16,60,039,37,18,05,059,19,26,33,056,27*71
1697069307121,$GPGSV,4,3,13,27,58,134,34,28,01,110,,31,24,101,27,46,21,244,41*79
1697069307121,$GPGSV,4,4,13,48,24,240,42*41
1697069307121,$GPGLL,3849.64989,N,07706.60628,W,000827.00,A,D*73
1697069308105,$GPRMC,000828.00,A,3849.65476,N,07706.61119,W,22.660,321.45,121023,,,D*41
1697069308105,$GPVTG,321.45,T,,M,22.660,N,41.967,K,D*34
1697069308108,$GPGGA,000828.00,3849.65476,N,07706.61119,W,2,10,0.92,76.4,M,-34.7,M,,0000*55
1697069308108,$GPGSA,A,3,16,04,27,09,48,26,31,08,46,07,,,1.72,0.92,1.46*06
1697069308108,$GPGSV,4,1,13,03,03,215,,04,67,233,36,07,17,298,40,08,34,183,34*7E
1697069308108,$GPGSV,4,2,13,09,50,294,39,16,60,039,37,18,05,059,19,26,33,056,26*70
1697069308108,$GPGSV,4,3,13,27,58,134,33,28,01,110,,31,24,101,27,46,21,244,41*7E
1697069308109,$GPGSV,4,4,13,48,24,240,42*41
1697069308109,$GPGLL,3849.65476,N,07706.61119,W,000828.00,A,D*74
1697069309103,$GPRMC,000829.00,A,3849.65967,N,07706.61630,W,22.967,320.92,121023,,,D*42
1697069309105,$GPVTG,320.92,T,,M,22.967,N,42.536,K,D*3C
1697069309117,$GPGGA,000829.00,3849.65967,N,07706.61630,W,2,10,0.92,76.2,M,-34.7,M,,0000*53
1697069309117,$GPGSA,A,3,16,04,27,09,48,26,31,08,46,07,,,1.72,0.92,1.46*06
1697069309117,$GPGSV,4,1,13,03,03,215,,04,67,233,36,07,17,298,38,08,34,183,34*71
1697069309117,$GPGSV,4,2,13,09,50,294,38,16,60,039,36,18,05,059,20,26,33,056,30*7D
1697069309117,$GPGSV,4,3,13,27,58,134,33,28,01,110,,31,24,101,33,46,21,244,41*7B
1697069309118,$GPGSV,4,4,13,48,24,240,41*42
1697069309118,$GPGLL,3849.65967,N,07706.61630,W,000829.00,A,D*74
1697069310113,$GPRMC,000830.00,A,3849.66459,N,07706.62151,W,22.993,320.13,121023,,,D*48
1697069310114,$GPVTG,320.13,T,,M,22.993,N,42.583,K,D*30
1697069310114,$GPGGA,000830.00,3849.66459,N,07706.62151,W,2,10,0.92,76.0,M,-34.7,M,,0000*59
1697069310114,$GPGSA,A,3,16,04,27,09,48,26,31,08,46,07,,,1.72,0.92,1.46*06
1697069310120,$GPGSV,4,1,13,03,03,215,,04,67,233,37,07,17,298,39,08,34,183,34*71
1697069310120,$GPGSV,4,2,13,09,50,294,35,16,60,039,37,18,05,059,19,26,33,056,33*78
1697069310121,$GPGSV,4,3,13,27,58,134,32,28,01,110,,31,24,101,30,46,21,244,39*76
1697069310121,$GPGSV,4,4,13,48,24,240,38*4C
1697069310121,$GPGLL,3849.66459,N,07706.62151,W,000830.00,A,D*7C
1697069311107,$GPRMC,000831.00,A,3849.66949,N,07706.62687,W,23.178,319.24,121023,,,D*4B
1697069311108,$GPVTG,319.24,T,,M,23.178,N,42.926,K,D*31
1697069311108,$GPGGA,000831.00,3849.66949,N,07706.62687,W,2,10,0.92,75.8,M,-34.7,M,,0000*53
1697069311108,$GPGSA,A,3,16,04,27,09,48,26,31,08,46,07,,,1.72,0.92,1.46*06
1697069311117,$GPGSV,4,1,13,03,03,215,,04,67,233,37,07,17,298,39,08,34,183,34*71
1697069311117,$GPGSV,4,2,13,09,50,294,32,16,60,039,38,18,05,059,29,26,33,056,30*70
1697069311117,$GPGSV,4,3,13,27,58,134,34,28,01,110,,31,24,101,34,46,21,244,40*7A
1697069311117,$GPGSV,4,4,13,48,24,240,40*43
1697069311117,$GPGLL,3849.66949,N,07706.62687,W,000831.00,A,D*7D
1697069312107,$GPRMC,000832.00,A,3849.67435,N,07706.63231,W,23.208,318.26,121023,,,D*40
1697069312108,$GPVTG,318.26,T,,M,23.208,N,42.981,K,D*3B
1697069312108,$GPGGA,000832.00,3849.67435,N,07706.63231,W,2,10,0.92,75.6,M,-34.7,M,,0000*51
1697069312108,$GPGSA,A,3,16,04,27,09,48,26,31,08,46,07,,,1.72,0.92,1.46*06
1697069312117,$GPGSV,4,1,13,03,03,215,,04,67,233,38,07,17,298,38,08,34,183,33*78
1697069312117,$GPGSV,4,2,13,09,50,294,28,16,60,039,39,18,05,059,23,26,33,056,32*72
1697069312117,$GPGSV,4,3,13,27,58,134,34,28,01,110,,31,24,101,37,46,21,244,35*7B
1697069312117,$GPGSV,4,4,13,48,24,240,31*45
1697069312117,$GPGLL,3849.67435,N,07706.63231,W,000832.00,A,D*71
1697069313107,$GPRMC,000833.00,A,3849.67916,N,07706.63789,W,23.340,317.66,121023,,,D*4D
1697069313108,$GPVTG,317.66,T,,M,23.340,N,43.225,K,D*39
1697069313108,$GPGGA,000833.00,3849.67916,N,07706.63789,W,2,10,0.95,75.4,M,-34.7,M,,0000*5F
1697069313108,$GPGSA,A,3,16,04,27,09,48,26,31,08,46,07,,,1.77,0.95,1.49*0B
1697069313117,$GPGSV,4,1,13,03,03,215,,04,67,233,39,07,17,298,39,08,34,183,33*78
1697069313117,$GPGSV,4,2,13,09,50,294,27,16,60,039,25,18,05,059,25,26,33,056,31*75
1697069313117,$GPGSV,4,3,13,27,58,134,35,28,01,110,,31,24,101,35,46,21,244,39*74
1697069313117,$GPGSV,4,4,13,48,24,240,37*43
1697069313117,$GPGLL,3849.67916,N,07706.63789,W,000833.00,A,D*7A
1697069314108,$GPRMC,000834.00,A,3849.68399,N,07706.64359,W,23.584,317.42,121023,,,D*4E
1697069314109,$GPVTG,317.42,T,,M,23.584,N,43.678,K,D*3D
1697069314111,$GPGGA,000834.00,3849.68399,N,07706.64359,W,2,10,0.95,75.3,M,-34.7,M,,0000*53
1697069314112,$GPGSA,A,3,16,04,27,09,48,26,31,08,46,07,,,1.77,0.95,1.49*0B
1697069314112,$GPGSV,4,1,13,03,03,215,,04,67,233,38,07,17,298,39,08,34,183,33*79
1697069314112,$GPGSV,4,2,13,09,50,294,28,16,60,039,22,18,05,059,23,26,33,056,21*7A
1697069314112,$GPGSV,4,3,13,27,58,134,34,28,01,110,,31,24,101,35,46,21,244,40*7B
1697069314112,$GPGSV,4,4,13,48,24,240,39*4D
1697069314112,$GPGLL,3849.68399,N,07706.64359,W,000834.00,A,D*71
1697069315103,$GPRMC,000835.00,A,3849.68879,N,07706.64934,W,23.563,316.66,121023,,,D*45
1697069315104,$GPVTG,316.66,T,,M,23.563,N,43.638,K,D*37
1697069315104,$GPGGA,000835.00,3849.68879,N,07706.64934,W,2,09,1.08,75.3,M,-34.7,M,,0000*5B
1697069315104,$GPGSA,A,3,16,04,27,09,48,31,08,46,07,,,,1.88,1.08,1.54*06
1697069315117,$GPGSV,4,1,13,03,03,215,,04,67,233,39,07,17,298,39,08,34,183,35*7E
1697069315117,$GPGSV,4,2,13,09,50,294,33,16,60,039,38,18,05,059,21,26,33,056,18*73
1697069315117,$GPGSV,4,3,13,27,58,134,35,28,01,110,,31,24,101,23,46,21,244,39*73
1697069315117,$GPGSV,4,4,13,48,24,240,37*43
1697069315117,$GPGLL,3849.68879,N,07706.64934,W,000835.00,A,D*74
1697069316104,$GPRMC,000836.00,A,3849.69353,N,07706.65509,W,23.776,315.91,121023,,,D*4A
1697069316106,$GPVTG,315.91,T,,M,23.776,N,44.033,K,D*30
1697069316117,$GPGGA,000836.00,3849.69353,N,07706.65509,W,2,09,1.08,75.3,M,-34.7,M,,0000*59
1697069316117,$GPGSA,A,3,16,04,27,09,48,31,08,46,07,,,,1.88,1.08,1.54*06
1697069316117,$GPGSV,4,1,13,03,03,215,,04,67,233,39,07,17,298,38,08,34,183,32*78
1697069316117,$GPGSV,4,2,13,09,50,294,38,16,60,039,39,18,05,059,17,26,33,056,33*75
1697069316117,$GPGSV,4,3,13,27,58,134,35,28,01,110,,31,24,101,20,46,21,244,42*7C
1697069316118,$GPGSV,4,4,13,48,24,240,38*4C
1697069316118,$GPGLL,3849.69353,N,07706.65509,W,000836.00,A,D*76
1697069317106,$GPRMC,000837.00,A,3849.69816,N,07706.66091,W,23.476,314.55,121023,,,D*4C
1697069317107,$GPVTG,314.55,T,,M,23.476,N,43.478,K,D*36
1697069317117,$GPGGA,000837.00,3849.69816,N,07706.66091,W,2,10,0.95,75.2,M,-34.7,M,,0000*59
1697069317117,$GPGSA,A,3,16,04,27,09,48,26,31,08,46,07,,,1.77,0.95,1.49*0B
1697069317117,$GPGSV,4,1,13,03,03,215,,04,67,233,39,07,17,298,32,08,34,183,30*70
1697069317118,$GPGSV,4,2,13,09,50,294,38,16,60,039,39,18,05,059,33,26,33,056,36*76
1697069317118,$GPGSV,4,3,13,27,58,134,36,28,01,110,,31,24,101,17,46,21,244,41*78
1697069317118,$GPGSV,4,4,13,48,24,240,37*43
1697069317118,$GPGLL,3849.69816,N,07706.66091,W,000837.00,A,D*7A
1697069318103,$GPRMC,000838.00,A,3849.70261,N,07706.66693,W,23.407,313.15,121023,,,D*40
1697069318104,$GPVTG,313.15,T,,M,23.407,N,43.349,K,D*36
1697069318117,$GPGGA,000838.00,3849.70261,N,07706.66693,W,2,09,1.08,75.1,M,-34.7,M,,0000*5E
1697069318117,$GPGSA,A,3,16,04,27,09,48,26,08,46,07,,,,2.07,1.08,1.77*05
1697069318117,$GPGSV,4,1,13,03,03,215,,04,67,233,39,07,17,298,28,08,34,183,29*73
1697069318117,$GPGSV,4,2,13,09,50,294,38,16,60,039,39,18,05,059,33,26,33,056,36*76
1697069318117,$GPGSV,4,3,13,27,58,134,36,28,01,110,,31,24,101,,46,21,244,42*7D
1697069318117,$GPGSV,4,4,13,48,24,240,37*43
1697069318118,$GPGLL,3849.70261,N,07706.66693,W,000838.00,A,D*73
1697069319103,$GPRMC,000839.00,A,3849.70701,N,07706.67312,W,23.529,312.15,121023,,,D*43
1697069319104,$GPVTG,312.15,T,,M,23.529,N,43.576,K,D*30
1697069319104,$GPGGA,000839.00,3849.70701,N,07706.67312,W,2,09,1.08,75.1,M,-34.7,M,,0000*51
1697069319108,$GPGSA,A,3,16,04,27,09,48,26,08,46,07,,,,2.07,1.08,1.77*05
1697069319109,$GPGSV,4,1,13,03,03,215,,04,67,233,40,07,17,298,28,08,34,183,29*7D
1697069319109,$GPGSV,4,2,13,09,50,294,37,16,60,039,38,18,05,059,27,26,33,056,36*7D
1697069319109,$GPGSV,4,3,13,27,58,134,37,28,01,110,,31,24,101,,46,21,244,42*7C
1697069319109,$GPGSV,4,4,13,48,24,240,37*43
1697069319109,$GPGLL,3849.70701,N,07706.67312,W,000839.00,A,D*7C
1697069320099,$GPRMC,000840.00,A,3849.71129,N,07706.67935,W,23.579,311.86,121023,,,D*43
1697069320099,$GPVTG,311.86,T,,M,23.579,N,43.669,K,D*31
1697069320107,$GPGGA,000840.00,3849.71129,N,07706.67935,W,2,09,1.08,75.3,M,-34.7,M,,0000*5F
1697069320107,$GPGSA,A,3,16,04,27,09,48,26,08,46,07,,,,2.07,1.08,1.77*05
1697069320107,$GPGSV,4,1,13,03,03,215,,04,67,233,40,07,17,298,28,08,34,183,31*74
1697069320107,$GPGSV,4,2,13,09,50,294,38,16,60,039,38,18,05,059,24,26,33,056,37*70
1697069320107,$GPGSV,4,3,13,27,58,134,38,28,01,110,,31,24,101,,46,21,244,35*73
1697069320108,$GPGSV,4,4,13,48,24,240,38*4C
1697069320108,$GPGLL,3849.71129,N,07706.67935,W,000840.00,A,D*70
1697069321103,$GPRMC,000841.00,A,3849.71557,N,07706.68565,W,23.661,310.89,121023,,,D*4D
1697069321103,$GPVTG,310.89,T,,M,23.661,N,43.820,K,D*36
1697069321103,$GPGGA,000841.00,3849.71557,N,07706.68565,W,2,09,1.08,75.5,M,-34.7,M,,0000*53
1697069321104,$GPGSA,A,3,16,04,27,09,48,26,08,46,07,,,,2.07,1.08,1.77*05
1697069321108,$GPGSV,4,1,13,03,03,215,,04,67,233,40,07,17,298,35,08,34,183,32*7B
1697069321109,$GPGSV,4,2,13,09,50,294,38,16,60,039,38,18,05,059,31,26,33,056,37*74
1697069321109,$GPGSV,4,3,13,27,58,134,39,28,01,110,,31,24,101,,46,21,244,34*73
1697069321109,$GPGSV,4,4,13,48,24,240,40*43
1697069321109,$GPGLL,3849.71557,N,07706.68565,W,000841.00,A,D*7A
1697069322099,$GPRMC,000842.00,A,3849.71991,N,07706.69200,W,23.804,311.18,121023,,,D*49
1697069322100,$GPVTG,311.18,T,,M,23.804,N,44.084,K,D*33
1697069322100,$GPGGA,000842.00,3849.71991,N,07706.69200,W,2,07,1.14,75.8,M,-34.7,M,,0000*5D
1697069322100,$GPGSA,A,3,16,04,27,09,26,08,07,,,,,,2.24,1.14,1.92*0C
1697069322107,$GPGSV,4,1,13,03,03,215,18,04,67,233,39,07,17,298,32,08,34,183,31*78
1697069322107,$GPGSV,4,2,13,09,50,294,38,16,60,039,37,18,05,059,30,26,33,056,37*7A
1697069322107,$GPGSV,4,3,13,27,59,134,39,28,01,110,,31,24,101,,46,21,244,*75
1697069322107,$GPGSV,4,4,13,48,24,240,*47
1697069322107,$GPGLL,3849.71991,N,07706.69200,W,000842.00,A,D*7A
1697069323103,$GPRMC,000843.00,A,3849.72441,N,07706.69846,W,24.436,311.66,121023,,,D*40
1697069323103,$GPVTG,311.66,T,,M,24.436,N,45.255,K,D*3F
1697069323103,$GPGGA,000843.00,3849.72441,N,07706.69846,W,2,08,1.14,76.1,M,-34.7,M,,0000*52
1697069323103,$GPGSA,A,3,16,04,27,09,26,31,08,07,,,,,2.24,1.14,1.92*0E
1697069323116,$GPGSV,4,1,13,03,03,215,22,04,67,233,40,07,17,298,32,08,34,183,32*7C
1697069323117,$GPGSV,4,2,13,09,50,294,39,16,60,039,38,18,05,059,29,26,33,056,37*7C
1697069323117,$GPGSV,4,3,13,27,59,134,39,28,01,110,,31,24,101,33,46,21,244,*75
1697069323117,$GPGSV,4,4,13,48,24,240,*47
1697069323117,$GPGLL,3849.72441,N,07706.69846,W,000843.00,A,D*70
1697069324103,$GPRMC,000844.00,A,3849.72902,N,07706.70498,W,24.944,312.19,121023,,,D*49
1697069324105,$GPVTG,312.19,T,,M,24.944,N,46.197,K,D*32
1697069324117,$GPGGA,000844.00,3849.72902,N,07706.70498,W,2,08,1.03,76.4,M,-34.7,M,,0000*5B
1697069324117,$GPGSA,A,3,16,04,27,09,26,31,08,07,,,,,1.93,1.03,1.63*09
1697069324117,$GPGSV,4,1,13,03,03,215,20,04,67,233,40,07,17,298,36,08,34,183,31*79
1697069324117,$GPGSV,4,2,13,09,50,294,39,16,60,039,38,18,05,059,28,26,33,056,34*7E
1697069324120,$GPGSV,4,3,13,27,59,134,39,28,01,110,,31,24,101,36,46,21,244,*70
1697069324120,$GPGSV,4,4,13,48,24,240,*47
1697069324120,$GPGLL,3849.72902,N,07706.70498,W,000844.00,A,D*7A
1697069325102,$GPRMC,000845.00,A,3849.73382,N,07706.71164,W,25.206,312.62,121023,,,D*4C
1697069325103,$GPVTG,312.62,T,,M,25.206,N,46.682,K,D*31
1697069325105,$GPGGA,000845.00,3849.73382,N,07706.71164,W,2,08,1.03,77.3,M,-34.7,M,,0000*58
1697069325105,$GPGSA,A,3,16,04,27,09,26,31,08,07,,,,,1.93,1.03,1.63*09
1697069325105,$GPGSV,4,1,13,03,03,215,18,04,67,233,40,07,17,298,36,08,34,183,32*71
1697069325105,$GPGSV,4,2,13,09,50,294,39,16,60,039,38,18,05,059,27,26,33,056,35*70
1697069325105,$GPGSV,4,3,13,27,59,134,40,28,01,110,,31,24,101,35,46,21,244,*7D
1697069325105,$GPGSV,4,4,13,48,24,240,*47
1697069325105,$GPGLL,3849.73382,N,07706.71164,W,000845.00,A,D*7F
1697069326105,$GPRMC,000846.00,A,3849.73859,N,07706.71825,W,25.390,312.92,121023,,,D*4F
1697069326106,$GPVTG,312.92,T,,M,25.390,N,47.022,K,D*3D
1697069326111,$GPGGA,000846.00,3849.73859,N,07706.71825,W,2,09,0.95,77.9,M,-34.7,M,,0000*5F
1697069326112,$GPGSA,A,3,16,04,27,09,26,31,08,46,07,,,,1.77,0.95,1.49*07
1697069326112,$GPGSV,4,1,13,03,03,215,,04,67,233,39,07,17,298,33,08,34,183,31*70
1697069326112,$GPGSV,4,2,13,09,50,294,37,16,60,039,38,18,05,059,23,26,33,056,35*7A
1697069326112,$GPGSV,4,3,13,27,59,134,40,28,01,110,,31,24,102,35,46,21,244,42*78
1697069326112,$GPGSV,4,4,13,48,24,240,*47
1697069326112,$GPGLL,3849.73859,N,07706.71825,W,000846.00,A,D*7D
1697069327104,$GPRMC,000847.00,A,3849.74346,N,07706.72497,W,25.764,312.80,121023,,,D*46
1697069327105,$GPVTG,312.80,T,,M,25.764,N,47.715,K,D*32
1697069327117,$GPGGA,000847.00,3849.74346,N,07706.72497,W,2,10,0.92,78.5,M,-34.7,M,,0000*56
1697069327117,$GPGSA,A,3,16,04,27,09,48,26,31,08,46,07,,,1.72,0.92,1.46*06
1697069327117,$GPGSV,4,1,13,03,03,215,,04,67,233,37,07,17,298,36,08,34,183,31*7B
1697069327117,$GPGSV,4,2,13,09,50,294,38,16,60,039,34,18,05,059,18,26,33,056,35*71
1697069327117,$GPGSV,4,3,13,27,59,134,41,28,01,110,,31,24,102,31,46,21,244,43*7C
1697069327118,$GPGSV,4,4,13,48,24,240,41*42
1697069327118,$GPGLL,3849.74346,N,07706.72497,W,000847.00,A,D*78
1697069328104,$GPRMC,000848.00,A,3849.74829,N,07706.73171,W,25.829,312.67,121023,,,D*48
1697069328117,$GPVTG,312.67,T,,M,25.829,N,47.835,K,D*30
1697069328117,$GPGGA,000848.00,3849.74829,N,07706.73171,W,2,10,0.92,79.1,M,-34.7,M,,0000*52
1697069328117,$GPGSA,A,3,16,04,27,09,48,26,31,08,46,07,,,1.72,0.92,1.46*06
1697069328117,$GPGSV,4,1,13,03,03,215,,04,67,233,29,07,17,298,35,08,34,183,34*72
1697069328118,$GPGSV,4,2,13,09,50,294,39,16,60,039,33,18,05,059,15,26,33,056,33*7C
1697069328118,$GPGSV,4,3,13,27,59,134,43,28,01,110,,31,24,102,31,46,21,244,43*7E
1697069328118,$GPGSV,4,4,13,48,24,240,42*41
1697069328118,$GPGLL,3849.74829,N,07706.73171,W,000848.00,A,D*79
1697069329108,$GPRMC,000849.00,A,3849.75327,N,07706.73857,W,25.083,312.31,121023,,,D*4B
1697069329109,$GPVTG,312.31,T,,M,25.083,N,46.454,K,D*31
1697069329109,$GPGGA,000849.00,3849.75327,N,07706.73857,W,2,10,0.92,80.1,M,-34.7,M,,0000*5C
1697069329109,$GPGSA,A,3,16,04,27,09,48,26,31,08,46,07,,,1.72,0.92,1.46*06
1697069329117,$GPGSV,4,1,13,03,03,215,,04,67,233,36,07,17,298,32,08,34,183,33*7C
1697069329117,$GPGSV,4,2,13,09,50,294,40,16,60,039,33,18,05,059,09,26,33,056,33*7F
1697069329117,$GPGSV,4,3,13,27,59,134,41,28,01,110,,31,24,102,32,46,21,244,42*7E
1697069329117,$GPGSV,4,4,13,48,24,240,42*41
1697069329118,$GPGLL,3849.75327,N,07706.73857,W,000849.00,A,D*71
1697069330107,$GPRMC,000850.00,A,3849.75772,N,07706.74499,W,24.481,312.00,121023,,,D*4B
1697069330108,$GPVTG,312.00,T,,M,24.481,N,45.340,K,D*35
1697069330108,$GPGGA,000850.00,3849.75772,N,07706.74499,W,2,10,0.92,80.8,M,-34.7,M,,0000*50
1697069330108,$GPGSA,A,3,16,04,27,09,48,26,31,08,46,07,,,1.72,0.92,1.46*06
1697069330108,$GPGSV,4,1,13,03,03,215,,04,67,233,36,07,17,298,35,08,34,183,34*7C
1697069330108,$GPGSV,4,2,13,09,50,294,40,16,60,039,33,18,05,059,08,26,33,056,33*7E
1697069330108,$GPGSV,4,3,13,27,59,134,42,28,01,110,,31,24,102,33,46,21,244,42*7C
1697069330109,$GPGSV,4,4,13,48,24,240,41*42
1697069330109,$GPGLL,3849.75772,N,07706.74499,W,000850.00,A,D*74
1697069331103,$GPRMC,000851.00,A,3849.76210,N,07706.75131,W,23.780,312.06,121023,,,D*4D
1697069331107,$GPVTG,312.06,T,,M,23.780,N,44.041,K,D*35
1697069331107,$GPGGA,000851.00,3849.76210,N,07706.75131,W,2,10,0.92,81.2,M,-34.7,M,,0000*5E
1697069331107,$GPGSA,A,3,16,04,27,09,48,26,31,08,46,07,,,1.72,0.92,1.46*06
1697069331108,$GPGSV,4,1,13,03,03,215,,04,67,233,36,07,17,298,36,08,34,183,33*78
1697069331108,$GPGSV,4,2,13,09,50,294,39,16,60,039,36,18,05,059,17,26,33,056,32*7A
1697069331108,$GPGSV,4,3,13,27,59,134,41,28,01,110,,31,24,102,32,46,21,244,42*7E
1697069331108,$GPGSV,4,4,13,48,24,240,41*42
1697069331108,$GPGLL,3849.76210,N,07706.75131,W,000851.00,A,D*71
1697069332104,$GPRMC,000852.00,A,3849.76642,N,07706.75757,W,23.389,312.01,121023,,,D*41
1697069332105,$GPVTG,312.01,T,,M,23.389,N,43.316,K,D*39
1697069332117,$GPGGA,000852.00,3849.76642,N,07706.75757,W,2,10,0.92,81.7,M,-34.7,M,,0000*5D
1697069332117,$GPGSA,A,3,16,04,27,09,48,26,31,08,46,07,,,1.72,0.92,1.46*06
1697069332117,$GPGSV,4,1,13,03,03,215,,04,67,233,36,07,17,298,35,08,34,183,32*7A
1697069332117,$GPGSV,4,2,13,09,50,294,40,16,60,039,38,18,05,059,17,26,33,056,31*79
1697069332117,$GPGSV,4,3,13,27,59,134,42,28,01,110,,31,24,102,32,46,21,244,42*7D
1697069332118,$GPGSV,4,4,13,48,24,240,41*42
1697069332118,$GPGLL,3849.76642,N,07706.75757,W,000852.00,A,D*77
1697069333104,$GPRMC,000853.00,A,3849.77084,N,07706.76361,W,22.969,313.48,121023,,,D*46
1697069333105,$GPVTG,313.48,T,,M,22.969,N,42.538,K,D*3B
1697069333105,$GPGGA,000853.00,3849.77084,N,07706.76361,W,2,10,0.92,82.1,M,-34.7,M,,0000*56
1697069333117,$GPGSA,A,3,16,04,27,09,48,26,31,08,46,07,,,1.72,0.92,1.46*06
1697069333117,$GPGSV,4,1,13,03,03,215,,04,67,233,36,07,17,298,35,08,34,183,31*79
1697069333117,$GPGSV,4,2,13,09,50,294,38,16,60,039,36,18,05,059,16,26,33,056,31*79
1697069333117,$GPGSV,4,3,13,27,59,134,41,28,01,110,,31,24,102,32,46,21,244,42*7E
1697069333117,$GPGSV,4,4,13,48,24,240,40*43
1697069333118,$GPGLL,3849.77084,N,07706.76361,W,000853.00,A,D*79
1697069334103,$GPRMC,000854.00,A,3849.77531,N,07706.76949,W,23.102,314.52,121023,,,D*42
1697069334104,$GPVTG,314.52,T,,M,23.102,N,42.785,K,D*37
1697069334108,$GPGGA,000854.00,3849.77531,N,07706.76949,W,2,10,0.92,82.5,M,-34.7,M,,0000*5E
1697069334109,$GPGSA,A,3,16,04,27,09,48,26,31,08,46,07,,,1.72,0.92,1.46*06
1697069334109,$GPGSV,4,1,13,03,03,215,,04,67,233,35,07,17,298,36,08,34,183,32*7A
1697069334109,$GPGSV,4,2,13,09,50,294,37,16,60,039,34,18,05,059,15,26,33,056,31*77
1697069334109,$GPGSV,4,3,13,27,59,134,40,28,01,110,,31,24,102,32,46,21,244,41*7C
1697069334109,$GPGSV,4,4,13,48,24,240,38*4C
1697069334109,$GPGLL,3849.77531,N,07706.76949,W,000854.00,A,D*75
1697069335103,$GPRMC,000855.00,A,3849.77992,N,07706.77527,W,23.237,316.08,121023,,,D*4B
1697069335105,$GPVTG,316.08,T,,M,23.237,N,43.034,K,D*33
1697069335105,$GPGGA,000855.00,3849.77992,N,07706.77527,W,2,10,0.92,82.8,M,-34.7,M,,0000*52
1697069335105,$GPGSA,A,3,16,04,27,09,48,26,31,08,46,07,,,1.72,0.92,1.46*06
1697069335117,$GPGSV,4,1,13,03,03,215,,04,67,233,35,07,17,298,36,08,34,183,35*7D
1697069335117,$GPGSV,4,2,13,09,50,294,37,16,60,039,35,18,05,059,16,26,33,056,31*75
1697069335117,$GPGSV,4,3,13,27,59,134,39,28,01,110,,31,24,102,31,46,21,244,39*7E
1697069335117,$GPGSV,4,4,13,48,24,240,38*4C
1697069335117,$GPGLL,3849.77992,N,07706.77527,W,000855.00,A,D*74
1697069336102,$GPRMC,000856.00,A,3849.78463,N,07706.78094,W,23.264,317.21,121023,,,D*4A
1697069336103,$GPVTG,317.21,T,,M,23.264,N,43.085,K,D*35
1697069336105,$GPGGA,000856.00,3849.78463,N,07706.78094,W,2,10,0.92,83.1,M,-34.7,M,,0000*57
1697069336106,$GPGSA,A,3,16,04,27,09,48,26,31,08,46,07,,,1.72,0.92,1.46*06
1697069336106,$GPGSV,4,1,13,03,03,215,,04,67,233,33,07,17,298,37,08,34,183,35*7A
1697069336106,$GPGSV,4,2,13,09,50,294,37,16,60,039,35,18,05,059,20,26,33,056,30*71
1697069336106,$GPGSV,4,3,13,27,59,134,38,28,01,110,,31,24,102,31,46,21,244,39*7F
1697069336106,$GPGSV,4,4,13,48,24,240,40*43
1697069336106,$GPGLL,3849.78463,N,07706.78094,W,000856.00,A,D*79
1697069337103,$GPRMC,000857.00,A,3849.78943,N,07706.78639,W,23.326,319.11,121023,,,D*4F
1697069337104,$GPVTG,319.11,T,,M,23.326,N,43.199,K,D*33
1697069337104,$GPGGA,000857.00,3849.78943,N,07706.78639,W,2,10,0.92,83.3,M,-34.7,M,,0000*5A
1697069337104,$GPGSA,A,3,16,04,27,09,48,26,31,08,46,07,,,1.72,0.92,1.46*06
1697069337117,$GPGSV,4,1,13,03,03,215,,04,67,233,32,07,17,298,39,08,34,183,37*77
1697069337117,$GPGSV,4,2,13,09,50,294,37,16,60,039,35,18,05,059,22,26,33,056,29*7B
1697069337117,$GPGSV,4,3,13,27,59,134,38,28,01,110,,31,24,102,30,46,21,244,37*70
1697069337117,$GPGSV,4,4,13,48,24,240,40*43
1697069337117,$GPGLL,3849.78943,N,07706.78639,W,000857.00,A,D*76
1697069338103,$GPRMC,000858.00,A,3849.79446,N,07706.79183,W,23.811,320.12,121023,,,D*48
1697069338103,$GPVTG,320.12,T,,M,23.811,N,44.098,K,D*32
1697069338104,$GPGGA,000858.00,3849.79446,N,07706.79183,W,2,10,0.92,83.4,M,-34.7,M,,0000*5C
1697069338104,$GPGSA,A,3,16,04,27,09,48,26,31,08,46,07,,,1.72,0.92,1.46*06
1697069338107,$GPGSV,4,1,13,03,03,215,22,04,67,233,32,07,17,298,36,08,34,183,36*79
1697069338107,$GPGSV,4,2,13,09,50,294,36,16,60,039,32,18,05,059,22,26,33,056,27*73
1697069338107,$GPGSV,4,3,13,27,59,134,38,28,01,110,,31,24,102,24,46,21,244,41*74
1697069338107,$GPGSV,4,4,13,48,24,240,40*43
1697069338108,$GPGLL,3849.79446,N,07706.79183,W,000858.00,A,D*77
1697069339107,$GPRMC,000859.00,A,3849.79961,N,07706.79731,W,24.220,320.54,121023,,,D*43
1697069339108,$GPVTG,320.54,T,,M,24.220,N,44.855,K,D*36
1697069339108,$GPGGA,000859.00,3849.79961,N,07706.79731,W,2,10,0.92,83.6,M,-34.7,M,,0000*58
1697069339108,$GPGSA,A,3,16,04,27,09,48,26,31,08,46,07,,,1.72,0.92,1.46*06
1697069339117,$GPGSV,4,1,13,03,03,215,21,04,67,233,31,07,17,298,36,08,34,183,36*79
1697069339117,$GPGSV,4,2,13,09,50,294,38,16,60,039,35,18,05,059,21,26,33,056,27*79
1697069339117,$GPGSV,4,3,13,27,59,134,35,28,01,110,,31,24,102,31,46,21,244,39*72
1697069339117,$GPGSV,4,4,13,48,24,240,40*43
1697069339117,$GPGLL,3849.79961,N,07706.79731,W,000859.00,A,D*71
1697069340107,$GPRMC,000900.00,A,3849.80488,N,07706.80274,W,24.577,321.38,121023,,,D*4E
1697069340108,$GPVTG,321.38,T,,M,24.577,N,45.517,K,D*32
1697069340117,$GPGGA,000900.00,3849.80488,N,07706.80274,W,2,10,0.92,83.3,M,-34.7,M,,0000*5E
1697069340117,$GPGSA,A,3,16,04,27,09,48,26,31,08,46,07,,,1.72,0.92,1.46*06
1697069340117,$GPGSV,4,1,13,03,03,215,24,04,67,233,32,07,17,298,39,08,34,183,36*70
1697069340117,$GPGSV,4,2,13,09,50,294,39,16,60,039,36,18,05,059,22,26,33,056,26*79
1697069340117,$GPGSV,4,3,13,27,59,134,37,28,01,110,,31,24,102,27,46,21,244,40*79
1697069340118,$GPGSV,4,4,13,48,24,240,39*4D
1697069340118,$GPGLL,3849.80488,N,07706.80274,W,000900.00,A,D*72
1697069341108,$GPRMC,000901.00,A,3849.81021,N,07706.80833,W,25.028,320.42,121023,,,D*42
1697069341111,$GPVTG,320.42,T,,M,25.028,N,46.351,K,D*37
1697069341111,$GPGGA,000901.00,3849.81021,N,07706.80833,W,2,10,0.92,83.1,M,-34.7,M,,0000*52
1697069341112,$GPGSA,A,3,16,04,27,09,48,26,31,08,46,07,,,1.72,0.92,1.46*06
1697069341112,$GPGSV,4,1,13,03,03,215,25,04,67,233,30,07,17,298,38,08,34,183,34*70
1697069341112,$GPGSV,4,2,13,09,50,294,39,16,60,039,35,18,05,059,21,26,33,056,27*78
1697069341113,$GPGSV,4,3,13,27,59,134,37,28,01,110,,31,24,102,28,46,21,244,39*78
1697069341113,$GPGSV,4,4,13,48,24,240,39*4D
1697069341113,$GPGLL,3849.81021,N,07706.80833,W,000901.00,A,D*7C
1697069342111,$GPRMC,000902.00,A,3849.81569,N,07706.81402,W,25.689,320.99,121023,,,D*4C
1697069342112,$GPVTG,320.99,T,,M,25.689,N,47.575,K,D*3D
1697069342112,$GPGGA,000902.00,3849.81569,N,07706.81402,W,2,10,0.92,82.9,M,-34.7,M,,0000*5E
1697069342117,$GPGSA,A,3,16,04,27,09,48,26,31,08,46,07,,,1.72,0.92,1.46*06
1697069342117,$GPGSV,4,1,13,03,03,215,24,04,67,233,30,07,17,298,40,08,34,183,34*7E
1697069342117,$GPGSV,4,2,13,09,50,294,39,16,60,039,34,18,05,059,22,26,33,056,27*7A
1697069342118,$GPGSV,4,3,13,27,59,134,36,28,01,110,,31,24,102,27,46,21,244,41*79
1697069342118,$GPGSV,4,4,13,48,24,240,39*4D
1697069342118,$GPGLL,3849.81569,N,07706.81402,W,000902.00,A,D*79
1697069343107,$GPRMC,000903.00,A,3849.82138,N,07706.81960,W,26.218,323.34,121023,,,D*4C
1697069343108,$GPVTG,323.34,T,,M,26.218,N,48.556,K,D*38
1697069343108,$GPGGA,000903.00,3849.82138,N,07706.81960,W,2,10,0.92,82.7,M,-34.7,M,,0000*5B
1697069343108,$GPGSA,A,3,16,04,27,09,48,26,31,08,46,07,,,1.72,0.92,1.46*06
1697069343117,$GPGSV,4,1,13,03,03,215,24,04,67,232,29,07,17,298,42,08,34,183,36*77
1697069343117,$GPGSV,4,2,13,09,50,294,41,16,60,039,36,18,05,059,23,26,33,056,25*74
1697069343117,$GPGSV,4,3,13,27,59,134,36,28,01,110,,31,24,102,28,46,21,244,40*77
1697069343117,$GPGSV,4,4,13,48,24,240,40*43
1697069343117,$GPGLL,3849.82138,N,07706.81960,W,000903.00,A,D*72
1697069344109,$GPRMC,000904.00,A,3849.82728,N,07706.82484,W,25.776,326.17,121023,,,D*42
1697069344110,$GPVTG,326.17,T,,M,25.776,N,47.737,K,D*38
1697069344110,$GPGGA,000904.00,3849.82728,N,07706.82484,W,2,10,0.92,82.4,M,-34.7,M,,0000*5C
1697069344110,$GPGSA,A,3,16,04,27,09,48,26,31,08,46,07,,,1.72,0.92,1.46*06
1697069344117,$GPGSV,4,1,13,03,03,215,24,04,67,232,28,07,17,298,41,08,34,183,35*76
1697069344117,$GPGSV,4,2,13,09,50,294,40,16,60,039,37,18,05,059,23,26,33,056,24*75
1697069344117,$GPGSV,4,3,13,27,59,134,35,28,01,110,,31,24,102,33,46,21,244,40*7E
1697069344117,$GPGSV,4,4,13,48,24,240,39*4D
1697069344117,$GPGLL,3849.82728,N,07706.82484,W,000904.00,A,D*76
1697069345109,$GPRMC,000905.00,A,3849.83328,N,07706.82965,W,25.583,328.17,121023,,,D*42
1697069345109,$GPVTG,328.17,T,,M,25.583,N,47.380,K,D*36
1697069345109,$GPGGA,000905.00,3849.83328,N,07706.82965,W,2,10,0.92,82.0,M,-34.7,M,,0000*5E
1697069345109,$GPGSA,A,3,16,04,27,09,48,26,31,08,46,07,,,1.72,0.92,1.46*06
1697069345117,$GPGSV,4,1,13,03,03,215,22,04,67,232,28,07,17,298,43,08,34,183,35*72
1697069345117,$GPGSV,4,2,13,09,50,294,44,16,60,039,39,18,05,059,22,26,33,056,22*78
1697069345117,$GPGSV,4,3,13,27,59,134,36,28,01,110,,31,24,102,33,46,21,244,43*7E
1697069345117,$GPGSV,4,4,13,48,24,240,41*42
1697069345117,$GPGLL,3849.83328,N,07706.82965,W,000905.00,A,D*70
1697069346108,$GPRMC,000906.00,A,3849.83934,N,07706.83427,W,25.636,329.18,121023,,,D*4F
1697069346109,$GPVTG,329.18,T,,M,25.636,N,47.477,K,D*3A
1697069346109,$GPGGA,000906.00,3849.83934,N,07706.83427,W,2,10,0.92,81.3,M,-34.7,M,,0000*50
1697069346109,$GPGSA,A,3,16,04,27,09,48,26,31,08,46,07,,,1.72,0.92,1.46*06
1697069346115,$GPGSV,4,1,13,03,03,215,23,04,67,232,29,07,17,299,44,08,34,183,36*77
1697069346116,$GPGSV,4,2,13,09,50,294,45,16,60,039,39,18,05,059,20,26,33,056,23*7A
1697069346116,$GPGSV,4,3,13,27,59,134,36,28,01,110,,31,24,102,35,46,21,244,41*7A
1697069346116,$GPGSV,4,4,13,48,24,240,41*42
1697069346116,$GPGLL,3849.83934,N,07706.83427,W,000906.00,A,D*7E
1697069347107,$GPRMC,000907.00,A,3849.84544,N,07706.83901,W,25.867,328.41,121023,,,D*4C
1697069347107,$GPVTG,328.41,T,,M,25.867,N,47.906,K,D*36
1697069347110,$GPGGA,000907.00,3849.84544,N,07706.83901,W,2,10,0.92,80.7,M,-34.7,M,,0000*51
1697069347110,$GPGSA,A,3,16,04,27,09,48,26,31,08,46,07,,,1.72,0.92,1.46*06
1697069347110,$GPGSV,4,1,13,03,03,215,22,04,67,232,29,07,17,299,44,08,34,183,36*76
1697069347110,$GPGSV,4,2,13,09,50,294,43,16,60,039,39,18,05,059,17,26,33,056,23*78
1697069347110,$GPGSV,4,3,13,27,59,134,36,28,01,110,,31,24,102,28,46,21,244,42*75
1697069347110,$GPGSV,4,4,13,48,24,240,41*42
1697069347110,$GPGLL,3849.84544,N,07706.83901,W,000907.00,A,D*7A
1697069348109,$GPRMC,000908.00,A,3849.85168,N,07706.84393,W,26.229,328.35,121023,,,D*4E
1697069348110,$GPVTG,328.35,T,,M,26.229,N,48.577,K,D*33
1697069348110,$GPGGA,000908.00,3849.85168,N,07706.84393,W,2,10,0.92,80.3,M,-34.7,M,,0000*57
1697069348110,$GPGSA,A,3,16,04,27,09,48,26,31,08,46,07,,,1.72,0.92,1.46*06
1697069348117,$GPGSV,4,1,13,03,03,215,21,04,67,232,28,07,17,299,45,08,34,183,37*74
1697069348117,$GPGSV,4,2,13,09,50,293,44,16,60,039,40,18,05,059,13,26,33,056,23*72
1697069348117,$GPGSV,4,3,13,27,59,134,35,28,01,110,,31,24,102,29,46,21,244,42*77
1697069348117,$GPGSV,4,4,13,48,24,240,41*42
1697069348117,$GPGLL,3849.85168,N,07706.84393,W,000908.00,A,D*78
1697069349105,$GPRMC,000909.00,A,3849.85796,N,07706.84895,W,26.438,328.21,121023,,,D*46
1697069349105,$GPVTG,328.21,T,,M,26.438,N,48.963,K,D*39
1697069349106,$GPGGA,000909.00,3849.85796,N,07706.84895,W,2,10,0.92,80.0,M,-34.7,M,,0000*5F
1697069349117,$GPGSA,A,3,16,04,27,09,48,26,31,08,46,07,,,1.72,0.92,1.46*06
1697069349117,$GPGSV,4,1,13,03,03,215,22,04,67,232,28,07,17,299,44,08,34,183,37*76
1697069349118,$GPGSV,4,2,13,09,50,293,44,16,60,039,40,18,05,059,09,26,33,056,22*78
1697069349118,$GPGSV,4,3,13,27,59,134,36,28,01,110,,31,24,102,30,46,21,244,41*7F
1697069349118,$GPGSV,4,4,13,48,24,240,41*42
1697069349118,$GPGLL,3849.85796,N,07706.84895,W,000909.00,A,D*73
1697069350105,$GPRMC,000910.00,A,3849.86428,N,07706.85397,W,26.693,328.37,121023,,,D*47
1697069350107,$GPVTG,328.37,T,,M,26.693,N,49.436,K,D*31
1697069350117,$GPGGA,000910.00,3849.86428,N,07706.85397,W,2,10,0.92,79.4,M,-34.7,M,,0000*58
1697069350117,$GPGSA,A,3,16,04,27,09,48,26,31,08,46,07,,,1.72,0.92,1.46*06
1697069350117,$GPGSV,4,1,13,03,03,215,,04,67,232,27,07,17,299,42,08,34,183,36*7E
1697069350117,$GPGSV,4,2,13,09,50,293,44,16,60,039,40,18,05,059,,26,33,056,20*73
1697069350117,$GPGSV,4,3,13,27,59,134,36,28,01,110,,31,24,102,34,46,21,244,39*74
1697069350118,$GPGSV,4,4,13,48,24,240,41*42
1697069350118,$GPGLL,3849.86428,N,07706.85397,W,000910.00,A,D*76
1697069351105,$GPRMC,000911.00,A,3849.87063,N,07706.85898,W,26.823,328.69,121023,,,D*46
1697069351106,$GPVTG,328.69,T,,M,26.823,N,49.677,K,D*38
1697069351107,$GPGGA,000911.00,3849.87063,N,07706.85898,W,2,10,0.92,78.9,M,-34.7,M,,0000*5B
1697069351107,$GPGSA,A,3,16,04,27,09,48,26,31,08,46,07,,,1.72,0.92,1.46*06
1697069351111,$GPGSV,4,1,13,03,03,215,,04,67,232,28,07,17,299,31,08,34,183,36*75
1697069351112,$GPGSV,4,2,13,09,50,293,44,16,60,039,40,18,05,059,,26,33,056,19*79
1697069351112,$GPGSV,4,3,13,27,59,134,36,28,01,110,,31,24,102,35,46,21,244,42*79
1697069351112,$GPGSV,4,4,13,48,24,240,41*42
1697069351113,$GPGLL,3849.87063,N,07706.85898,W,000911.00,A,D*79
1697069352106,$GPRMC,000912.00,A,3849.87702,N,07706.86394,W,26.810,329.17,121023,,,D*49
1697069352108,$GPVTG,329.17,T,,M,26.810,N,49.652,K,D*37
1697069352117,$GPGGA,000912.00,3849.87702,N,07706.86394,W,2,10,0.92,78.2,M,-34.7,M,,0000*57
1697069352117,$GPGSA,A,3,16,04,27,09,48,26,31,08,46,07,,,1.72,0.92,1.46*06
1697069352117,$GPGSV,4,1,13,03,03,215,,04,67,232,29,07,17,299,25,08,34,183,35*72
1697069352117,$GPGSV,4,2,13,09,50,293,44,16,60,039,40,18,05,059,,26,33,056,19*79
1697069352118,$GPGSV,4,3,13,27,59,134,36,28,01,110,,31,24,102,32,46,21,244,41*7D
1697069352118,$GPGSV,4,4,13,48,24,240,40*43
1697069352118,$GPGLL,3849.87702,N,07706.86394,W,000912.00,A,D*7E
1697069353108,$GPRMC,000913.00,A,3849.88328,N,07706.86876,W,25.942,329.22,121023,,,D*4F
1697069353109,$GPVTG,329.22,T,,M,25.942,N,48.045,K,D*35
1697069353111,$GPGGA,000913.00,3849.88328,N,07706.86876,W,2,10,0.92,77.7,M,-34.7,M,,0000*58
1697069353111,$GPGSA,A,3,16,04,27,09,48,26,31,08,46,07,,,1.72,0.92,1.46*06
1697069353111,$GPGSV,4,1,13,03,03,215,19,04,67,232,28,07,17,299,23,08,34,183,33*7B
1697069353111,$GPGSV,4,2,13,09,50,293,43,16,60,039,39,18,05,059,,26,33,056,18*71
1697069353111,$GPGSV,4,3,13,27,59,134,33,28,01,110,,31,24,102,32,46,21,244,40*79
1697069353111,$GPGSV,4,4,13,48,24,240,39*4D
1697069353111,$GPGLL,3849.88328,N,07706.86876,W,000913.00,A,D*7B
1697069354108,$GPRMC,000914.00,A,3849.88928,N,07706.87344,W,24.970,328.63,121023,,,D*4D
1697069354109,$GPVTG,328.63,T,,M,24.970,N,46.244,K,D*3C
1697069354109,$GPGGA,000914.00,3849.88928,N,07706.87344,W,2,10,0.92,77.1,M,-34.7,M,,0000*58
1697069354109,$GPGSA,A,3,16,04,27,09,48,26,31,08,46,07,,,1.72,0.92,1.46*06
1697069354117,$GPGSV,4,1,13,03,03,215,,04,67,232,27,07,17,299,22,08,34,183,32*7C
1697069354117,$GPGSV,4,2,13,09,50,293,42,16,60,039,38,18,05,059,18,26,33,056,18*78
1697069354117,$GPGSV,4,3,13,27,59,134,31,28,01,110,,31,24,102,33,46,21,244,40*7A
1697069354117,$GPGSV,4,4,13,48,24,240,39*4D
1697069354118,$GPGLL,3849.88928,N,07706.87344,W,000914.00,A,D*7D
1697069355108,$GPRMC,000915.00,A,3849.89503,N,07706.87803,W,24.142,327.89,121023,,,D*42
1697069355109,$GPVTG,327.89,T,,M,24.142,N,44.711,K,D*39
1697069355109,$GPGGA,000915.00,3849.89503,N,07706.87803,W,2,10,0.92,76.7,M,-34.7,M,,0000*52
1697069355109,$GPGSA,A,3,16,04,27,09,48,26,31,08,46,07,,,1.72,0.92,1.46*06
1697069355117,$GPGSV,4,1,13,03,03,215,,04,67,232,26,07,17,299,22,08,34,183,33*7C
1697069355117,$GPGSV,4,2,13,09,50,293,42,16,60,039,38,18,05,059,19,26,33,056,20*72
1697069355117,$GPGSV,4,3,13,27,59,134,34,28,01,110,,31,24,102,33,46,21,244,40*7F
1697069355118,$GPGSV,4,4,13,48,24,240,39*4D
1697069355118,$GPGLL,3849.89503,N,07706.87803,W,000915.00,A,D*70
1697069356108,$GPRMC,000916.00,A,3849.90064,N,07706.88252,W,23.603,328.20,121023,,,D*45
1697069356108,$GPVTG,328.20,T,,M,23.603,N,43.712,K,D*34
1697069356109,$GPGGA,000916.00,3849.90064,N,07706.88252,W,2,10,0.92,76.2,M,-34.7,M,,0000*59
1697069356109,$GPGSA,A,3,16,04,27,09,48,26,31,08,46,07,,,1.72,0.92,1.46*06
1697069356114,$GPGSV,4,1,13,03,03,215,,04,67,232,25,07,17,299,20,08,34,183,33*7D
1697069356114,$GPGSV,4,2,13,09,50,293,41,16,60,039,41,18,05,059,20,26,33,056,30*74
1697069356114,$GPGSV,4,3,13,27,59,134,37,28,01,110,,31,24,102,33,46,21,244,36*7D
1697069356115,$GPGSV,4,4,13,48,24,240,41*42
1697069356115,$GPGLL,3849.90064,N,07706.88252,W,000916.00,A,D*7E
1697069357104,$GPRMC,000917.00,A,3849.90607,N,07706.88681,W,22.882,328.83,121023,,,D*42
1697069357105,$GPVTG,328.83,T,,M,22.882,N,42.377,K,D*3D
1697069357117,$GPGGA,000917.00,3849.90607,N,07706.88681,W,2,10,0.92,75.8,M,-34.7,M,,0000*58
1697069357117,$GPGSA,A,3,16,04,27,09,48,26,31,08,46,07,,,1.72,0.92,1.46*06
1697069357117,$GPGSV,4,1,13,03,03,215,,04,67,232,25,07,17,299,23,08,34,183,31*7C
1697069357117,$GPGSV,4,2,13,09,50,293,41,16,60,039,41,18,05,058,19,26,33,056,31*7E
1697069357117,$GPGSV,4,3,13,27,59,134,37,28,01,110,,31,24,102,34,46,21,244,34*78
1697069357118,$GPGSV,4,4,13,48,24,240,40*43
1697069357118,$GPGLL,3849.90607,N,07706.88681,W,000917.00,A,D*76
1697069358107,$GPRMC,000918.00,A,3849.91136,N,07706.89098,W,22.290,328.71,121023,,,D*42
1697069358108,$GPVTG,328.71,T,,M,22.290,N,41.281,K,D*32
1697069358110,$GPGGA,000918.00,3849.91136,N,07706.89098,W,2,10,0.92,75.3,M,-34.7,M,,0000*57
1697069358110,$GPGSA,A,3,16,04,27,09,48,26,31,08,46,07,,,1.72,0.92,1.46*06
1697069358110,$GPGSV,4,1,13,03,03,215,,04,67,232,31,07,17,299,23,08,34,183,32*7A
1697069358110,$GPGSV,4,2,13,09,50,293,42,16,60,039,41,18,05,058,19,26,33,056,24*79
1697069358110,$GPGSV,4,3,13,27,59,134,37,28,01,110,,31,24,102,34,46,21,244,35*79
1697069358111,$GPGSV,4,4,13,48,24,240,37*43
1697069358111,$GPGLL,3849.91136,N,07706.89098,W,000918.00,A,D*72
1697069359104,$GPRMC,000919.00,A,3849.91647,N,07706.89502,W,21.421,328.65,121023,,,D*4E
1697069359105,$GPVTG,328.65,T,,M,21.421,N,39.671,K,D*3C
1697069359105,$GPGGA,000919.00,3849.91647,N,07706.89502,W,2,10,0.92,75.1,M,-34.7,M,,0000*53
1697069359105,$GPGSA,A,3,16,04,27,09,48,26,31,08,46,07,,,1.72,0.92,1.46*06
1697069359117,$GPGSV,4,1,13,03,03,215,,04,67,232,27,07,17,299,23,08,34,183,28*76
1697069359117,$GPGSV,4,2,13,09,50,293,38,16,60,039,40,18,05,058,20,26,33,056,24*7F
1697069359117,$GPGSV,4,3,13,27,59,134,32,28,01,110,,31,24,102,22,46,21,244,38*76
1697069359117,$GPGSV,4,4,13,48,24,240,39*4D
1697069359117,$GPGLL,3849.91647,N,07706.89502,W,000919.00,A,D*74
1697069360099,$GPRMC,000920.00,A,3849.92135,N,07706.89889,W,20.631,328.46,121023,,,D*48
1697069360100,$GPVTG,328.46,T,,M,20.631,N,38.208,K,D*34
1697069360100,$GPGGA,000920.00,3849.92135,N,07706.89889,W,2,10,1.09,74.8,M,-34.7,M,,0000*5D
1697069360100,$GPGSA,A,3,16,04,27,09,48,26,31,08,46,07,,,1.98,1.09,1.66*03
1697069360107,$GPGSV,4,1,13,03,03,215,,04,67,232,27,07,17,299,24,08,34,183,29*70
